[
  {
    "id": 0,
    "name": "참동물병원",
    "address": "경기 오산시 오산로 91-10 광성빌딩 101호",
    "latitude": "37.1353870979772",
    "longitude": "127.068734628608",
    "description": "가까운 동물병원.",
    "tags": ["동물병원"],
    "category": "pet hospital"
  },
  {
    "id": 1,
    "name": "저스트벳동물병원",
    "address": "경기 오산시 원동로 6 파크스퀘어 105~106호",
    "latitude": "37.1420376627923",
    "longitude": "127.069638492806",
    "description": "과잉 없고 친절함.",
    "tags": ["동물병원"],
    "category": "pet hospital"
  },
  {
    "id": 2,
    "name": "밝은안과의원",
    "address": "경기 오산시 대원로 8 2, 3층",
    "latitude": "37.146266",
    "longitude": "127.0691689",
    "description": "월-금: 09:30-18:30 / 휴게시간: 13:00-14:00 \n토: 09:30-15:00 \n매주 일요일 정기휴무",
    "tags": ["병원", "안과"],
    "category": "ophthalmology eye hospital"
  },
  {
    "id": 3,
    "name": "송호욱병원 정형외과",
    "address": "경기 오산시 내삼미로79번길 19 광장프라자 6층",
    "latitude": "37.1694653456222",
    "longitude": "127.064374832387",
    "description": "주차 가능. \n월-금: 09:00-18:00 / 휴게시간: 13:00-14:00 / 접수마감: 17:20 \n토: 09:00-13:00 / 접수마감: 12:20 \n매주 일요일 정기휴무 \n4인실만 있음.",
    "tags": ["병원", "정형외과"],
    "category": "orthopedics hospital"
  },
  {
    "id": 4,
    "name": "장편한현내과의원",
    "address": "경기 오산시 경기대로 154 2층",
    "latitude": "37.138475825833",
    "longitude": "127.073862014084",
    "description": "내과\n월-금: 08:30-18:00 / 휴게시간: 13:00-14:00\n토: 09:00-13:00\n매주 일요일 정기휴무",
    "tags": ["병원", "내과"],
    "category": "medicine hospital"
  }
]
